     3.04           OBSERVATION DATA    M (MIXED)           RINEX VERSION / TYPE
sbf2rin-15.9.0                          20240301 000147 UTC PGM / RUN BY / DATE
gfzrnx-1.13-7761    FILE PROCESSING     20240301 000155 UTC COMMENT
AL2H00CAN                                                   MARKER NAME
40129M003                                                   MARKER NUMBER
PGC-WCDA            GEOL. SURV. CANADA                      OBSERVER / AGENCY
3016127             SEPT POLARX5        5.3.2               REC # / TYPE / VERS
5112354071          TRM59800.00     SCIS                    ANT # / TYPE
        0.1000        0.0000        0.0000                  ANTENNA: DELTA H/E/N
 -2341332.8840 -3539049.5090  4745791.3600                  APPROX POSITION XYZ
C   15 C1P C2I C5P C6I C7I L1P L2I L5P L6I L7I S1P S2I S5P  SYS / # / OBS TYPES
       S6I S7I                                              SYS / # / OBS TYPES
E   15 C1C C5Q C6C C7Q C8Q L1C L5Q L6C L7Q L8Q S1C S5Q S6C  SYS / # / OBS TYPES
       S7Q S8Q                                              SYS / # / OBS TYPES
G   17 C1C C1L C1W C2L C2W C5Q L1C L1L L2L L2W L5Q S1C S1L  SYS / # / OBS TYPES
       S1W S2L S2W S5Q                                      SYS / # / OBS TYPES
R   15 C1C C1P C2C C2P C3Q L1C L1P L2C L2P L3Q S1C S1P S2C  SYS / # / OBS TYPES
       S2P S3Q                                              SYS / # / OBS TYPES
Contact pac_gps@nrcan-rncan.gc.ca for additional info.      COMMENT
The data subject to the Open Government Licence - Canada    COMMENT
at https://open.canada.ca/en/open-government-licence-canada COMMENT
Geodetic                                                    MARKER TYPE
SEPTENTRIO RECEIVERS OUTPUT ALIGNED CARRIER PHASES.         COMMENT
NO FURTHER PHASE SHIFT APPLIED IN THE RINEX ENCODER.        COMMENT
G L1C                                                       SYS / PHASE SHIFT
G L2W                                                       SYS / PHASE SHIFT
G L2L  0.00000                                              SYS / PHASE SHIFT
G L5Q  0.00000                                              SYS / PHASE SHIFT
G L1L  0.00000                                              SYS / PHASE SHIFT
E L1C  0.00000                                              SYS / PHASE SHIFT
E L6C  0.00000                                              SYS / PHASE SHIFT
E L5Q  0.00000                                              SYS / PHASE SHIFT
E L7Q  0.00000                                              SYS / PHASE SHIFT
E L8Q  0.00000                                              SYS / PHASE SHIFT
R L1C                                                       SYS / PHASE SHIFT
R L1P  0.00000                                              SYS / PHASE SHIFT
R L2P  0.00000                                              SYS / PHASE SHIFT
R L2C                                                       SYS / PHASE SHIFT
R L3Q  0.00000                                              SYS / PHASE SHIFT
C L1P  0.00000                                              SYS / PHASE SHIFT
C L5P  0.00000                                              SYS / PHASE SHIFT
C L2I                                                       SYS / PHASE SHIFT
C L7I                                                       SYS / PHASE SHIFT
C L6I                                                       SYS / PHASE SHIFT
 C1C    0.000 C1P    0.000 C2C    0.000 C2P    0.000        GLONASS COD/PHS/BIS
DBHZ                                                        SIGNAL STRENGTH UNIT
    18                                                      LEAP SECONDS
 12 R02 -4 R03  5 R04  6 R05  1 R09 -2 R10 -7 R11  0 R12 -1 GLONASS SLOT / FRQ #
    R19  3 R20  2 R21  4 R22 -3                             GLONASS SLOT / FRQ #
    43                                                      # OF SATELLITES
   C06         120         120   120         120         120PRN / # OF OBS
         120         120         120   120                  PRN / # OF OBS
   C12         120         120   120         120         120PRN / # OF OBS
         120         120         120   120                  PRN / # OF OBS
   C16         120         120   120         120         120PRN / # OF OBS
         120         120         120   120                  PRN / # OF OBS
   C19   120   120   120   120         120   120   120   120PRN / # OF OBS
               120   120   120   120                        PRN / # OF OBS
   C20   120   120   120   120         120   120   120   120PRN / # OF OBS
               120   120   120   120                        PRN / # OF OBS
   C22     6    11    11    11           6    11    11    11PRN / # OF OBS
                 6    11    11    11                        PRN / # OF OBS
   C24   120   120   120   120         120   120   120   120PRN / # OF OBS
               120   120   120   120                        PRN / # OF OBS
   C25   101   102   102   102         101   102   102   102PRN / # OF OBS
               101   102   102   102                        PRN / # OF OBS
   C26   120   120   120   120         120   120   120   120PRN / # OF OBS
               120   120   120   120                        PRN / # OF OBS
   C29    87    92    91    90          87    88    91    89PRN / # OF OBS
                87    92    91    90                        PRN / # OF OBS
   C34   119   120   120   120         119   120   120   120PRN / # OF OBS
               119   120   120   120                        PRN / # OF OBS
   C35   120   120   120   120         120   120   120   120PRN / # OF OBS
               120   120   120   120                        PRN / # OF OBS
   E04     6    10                                          PRN / # OF OBS
                 6    10                                    PRN / # OF OBS
   E13   120   120   120   120   120   120   120   120   120PRN / # OF OBS
         120   120   120   120   120   120                  PRN / # OF OBS
   E15   120   120   120   120   120   120   120   120   120PRN / # OF OBS
         120   120   120   120   120   120                  PRN / # OF OBS
   E18     5     7     6     5     6     3     5     6     5PRN / # OF OBS
           6     5     7     6     5     6                  PRN / # OF OBS
   E21   120   120   120   120   120   120   120   120   120PRN / # OF OBS
         120   120   120   120   120   120                  PRN / # OF OBS
   E26   120   120   120   120   120   120   120   120   120PRN / # OF OBS
         120   120   120   120   120   120                  PRN / # OF OBS
   E27   120   120   120   120   120   120   120   120   120PRN / # OF OBS
         120   120   120   120   120   120                  PRN / # OF OBS
   E30     1     8     5     6     8                 5     6PRN / # OF OBS
           8     1     8     5     6     8                  PRN / # OF OBS
   E34     1     7           2     5           4           2PRN / # OF OBS
           5     1     7           2     5                  PRN / # OF OBS
   G05    76          75    75    75          76          75PRN / # OF OBS
          75          76          75    75    75            PRN / # OF OBS
   G06   120         120   120   120   120   120         120PRN / # OF OBS
         120   120   120         120   120   120   120      PRN / # OF OBS
   G11   120   120   120   120   120   120   120   120   120PRN / # OF OBS
         120   120   120   120   120   120   120   120      PRN / # OF OBS
   G12   120         120   120   120         120         120PRN / # OF OBS
         120         120         120   120   120            PRN / # OF OBS
   G19   118         108         108         110            PRN / # OF OBS
         108         118         108         108            PRN / # OF OBS
   G20   120         120         120         120            PRN / # OF OBS
         120         120         120         120            PRN / # OF OBS
   G24   100          92   103    92   102    92          93PRN / # OF OBS
          92   102   100          92   103    92   102      PRN / # OF OBS
   G25   120         120   120   120   120   120         120PRN / # OF OBS
         120   120   120         120   120   120   120      PRN / # OF OBS
   G28   117   101    89   117    89   118    91   101   106PRN / # OF OBS
          89   118   117   101    89   117    89   118      PRN / # OF OBS
   G29   120         120   120   120         120         120PRN / # OF OBS
         120         120         120   120   120            PRN / # OF OBS
   R02     4           3                 1                  PRN / # OF OBS
                 4           3                              PRN / # OF OBS
   R03   118   115   120   113         114   114   114   112PRN / # OF OBS
               118   115   120   113                        PRN / # OF OBS
   R04   101    95   100    99   104   101    95   100    95PRN / # OF OBS
         104   101    95   100    99   104                  PRN / # OF OBS
   R05    31    30    31    27    30    31    30    31    27PRN / # OF OBS
          30    31    30    31    27    30                  PRN / # OF OBS
   R09   120   120   120   120   120   120   120   120   120PRN / # OF OBS
         120   120   120   120   120   120                  PRN / # OF OBS
   R10   120   120                     120   120            PRN / # OF OBS
               120   120                                    PRN / # OF OBS
   R11   120   120   120   120   120   120   120   120   120PRN / # OF OBS
         120   120   120   120   120   120                  PRN / # OF OBS
   R12    26    19    15    10    10    16    16     8     7PRN / # OF OBS
          10    26    19    15    10    10                  PRN / # OF OBS
   R19   120   110   120   120         111   110   114   114PRN / # OF OBS
               120   110   120   120                        PRN / # OF OBS
   R20   120   120   120   120         120   120   120   120PRN / # OF OBS
               120   120   120   120                        PRN / # OF OBS
   R21   120   120   120   120   120   120   120   120   120PRN / # OF OBS
         120   120   120   120   120   120                  PRN / # OF OBS
   R22    11    10    10    10    11    11    10    10    10PRN / # OF OBS
          11    11    10    10    10    11                  PRN / # OF OBS
    30.000                                                  INTERVAL
  2024     2    29    23     0    0.0000000     GPS         TIME OF FIRST OBS
  2024     2    29    23    59   30.0000000     GPS         TIME OF LAST OBS
                                                            END OF HEADER
> 2024 02 29 23 00 00.0000000  0 36
C06                  40647371.143 6                  40647375.635 6  40647377.097 6                 211661525.83906                 171992364.34706 163670165.18906                        36.500                          36.250          38.250
C12                  24232543.289 7                  24232547.427 7  24232548.393 7                 126185305.62107                 102535981.22807  97574580.46907                        44.250                          46.250          47.500
C16                  40555890.311 6                  40555899.275 6  40555901.394 6                 211185191.54006                 171605308.27706 163301844.32306                        37.000                          36.500          36.250
C19  27255088.578 4  27255088.743 5  27255103.128 5  27255095.990 6                 143226445.98304 141924392.92405 106954884.69205 115325237.57106                        29.500          33.500          34.500          36.000
C20  26428177.632 5  26428177.444 6  26428190.403 6  26428185.366 6                 138881030.37805 137618485.24606 103709930.30806 111826325.65906                        32.500          36.250          36.750          40.750
C24  22119740.870 8  22119738.603 8  22119743.566 8  22119742.612 8                 116240120.79808 115183375.91308  86802742.58708  93595982.27108                        50.250          52.250          52.250          53.750
C26  22858155.133 8  22858153.135 8  22858161.640 8  22858159.858 8                 120120449.34708 119028439.13808  89700374.41008  96720404.69708                        48.000          50.750          48.500          50.750
C29  25481798.800 6  25481797.079 6  25481808.123 6  25481804.831 6                 133907798.69806 132690453.05306  99996149.39106 107821913.81706                        37.500          40.000          39.250          40.750
C34                  26801519.624 5  26801539.263 5  26801534.741 5                                 139562549.96005 105175000.61405 113406060.76605                                        31.500          30.250          33.250
C35  21579821.280 8  21579819.286 8  21579826.744 8  21579824.869 8                 113402873.06008 112371931.77608  84684079.65908  91311489.46008                        49.500          52.500          50.500          53.500
E04  28574808.745 3  28574819.768 4                                                                                                                                        22.500          24.250
E13  23885684.362 8  23885692.075 8  23885687.031 8  23885688.558 8  23885690.062 9 125520328.46508  93732872.10808 101883490.30408  96178046.17208  94955467.71509        49.000          51.000          53.250          52.750          54.750
E15  24344398.145 7  24344405.778 8  24344401.369 8  24344402.399 8  24344403.863 8 127930836.33207  95532900.58808 103840052.84208  98025042.55808  96778977.64808        47.750          49.750          52.000          51.250          53.500
E18  22302712.609 4  22302727.429 4  22302720.225 4  22302723.151 4  22302725.066 5 117201478.92804  87520613.15704  95131087.59804  89803740.83404  88662187.07105        25.500          26.750          27.000          28.000          30.250
E21  23684441.908 8  23684448.360 8  23684446.004 9  23684445.022 8  23684446.490 9 124462674.66608  92942980.44608 101024945.77709  95367565.03608  94155279.31509        49.250          52.000          54.500          53.750          55.750
E26  27458214.162 6  27458230.349 6  27458223.155 6  27458225.088 6  27458227.571 7 144293909.76306 107752025.51006 117121743.38506 110562931.16306 109157487.91307        38.500          40.500          38.000          41.000          43.750
E27  24435567.887 8  24435575.118 8  24435572.609 8  24435571.976 8  24435573.301 8 128409790.28208  95890466.53208 104228751.29308  98391947.59008  97141212.13408        48.000          49.250          51.250          51.000          53.250
E30  28779631.717 3  28779649.152 4  28779640.450 4  28779644.427 4  28779646.459 4                                 122757910.35404 115883453.88604 114410363.26004        22.750          25.250          28.750          27.500          29.250
E34                  28344862.337 4                  28344859.200 4  28344860.212 4                 111231374.01704                 114133044.98404 112682217.08304                        26.250                          26.000          29.000
G06  21247124.325 8                  21247124.223 6  21247129.601 7  21247129.042 6  21247130.602 8 111654575.71608                  87003679.75407  87003677.75506  83378552.18408        48.000                          41.500          46.750          41.500          51.250
G11  20765576.507 8  20765576.586 8  20765576.297 7  20765578.362 8  20765578.116 7  20765583.128 9 109124065.86808 109124054.86508  85031864.39908  85031862.39207  81488907.18009        49.500          49.000          44.250          50.000          44.250          54.500
G12  20216234.192 8                  20216233.844 8  20216234.978 8  20216234.536 8                 106237128.52908                  82782233.49508  82782227.49408                        51.250                          48.000          48.750          48.000
G19  23074478.095 6                  23074476.839 4                  23074480.809 4                 121257267.65306                                  94486230.83004                        40.000                          26.000                          26.000
G20  23718594.373 6                  23718593.291 3                  23718600.038 3                 124642136.50406                                  97123790.96803                        38.750                          20.000                          20.000
G24  23851771.716 6                  23851771.493 4  23851782.067 6  23851781.808 4  23851784.155 7 125341848.07906                  97668989.08906  97668979.08104  93599451.66707        39.000                          26.500          41.000          26.500          45.000
G25  21294942.870 7                  21294942.106 6  21294948.624 7  21294947.654 6  21294949.661 8 111905778.57607                  87199364.41807  87199369.40806  83566086.54808        47.500                          39.000          44.750          39.000          50.500
G28                                                  24687539.430 5                  24687546.982 5                                 101091347.86505                  96879244.47505                                                        30.250                          35.750
G29  24625686.660 6                  24625686.276 4  24625694.852 5  24625694.610 4                 129408883.92006                 100838137.30305 100838141.29904                        40.000                          24.250          35.000          24.250
R02                                  24125356.022 3                                                                                                                                                        20.500
R03  23689511.264 6  23689510.830 6  23689521.226 5  23689520.680 5                 126811838.63806 126811818.64606  98631469.05305  98631464.04805                        39.750          38.250          35.000          34.750
R09  21170158.650 8  21170158.834 8  21170166.972 7  21170167.226 7  21170153.991 7 113047475.48908 113047483.49108  87925839.69907  87925830.69407  84882237.30907        50.000          49.750          47.750          47.250          45.750
R10  19283538.422 8  19283538.180 8                                                 102792202.21308 102792199.21808                                                        49.250          48.750
R11  21274314.472 8  21274314.723 8  21274321.445 7  21274321.446 7  21274310.056 7 113683554.80908 113683553.82008  88420601.81807  88420586.81607  85299947.60207        50.250          50.500          46.750          47.500          46.500
R19  21882933.762 6  21882933.378 6  21882943.532 7  21882942.893 7                 117059050.35206 117059063.36706  91046062.27007  91046030.26707                        37.500          36.250          43.000          43.000
R20  19213216.142 7  19213216.276 7  19213225.414 7  19213224.757 7                 102741879.00307 102741859.01307  79910414.30807  79910449.30707                        42.500          42.000          45.000          45.250
R21  22364816.290 8  22364816.446 7  22364827.542 7  22364828.025 7  22364814.683 7 119678728.49908 119678710.51707  93083559.43007  93083555.43407  89672353.63407        48.000          47.000          42.750          43.250          42.000
> 2024 02 29 23 00 30.0000000  0 35
C06                  40641882.128 6                  40641886.620 6  40641887.626 6                 211632943.78506                 171969139.16806 163648063.81506                        36.250                          36.250          38.250
C12                  24217016.536 7                  24217021.945 7  24217023.040 8                 126104461.31007                 102470288.71407  97512066.67608                        42.750                          46.750          48.000
C16                  40551214.617 6                  40551222.700 6  40551223.737 5                 211160840.40206                 171585521.02806 163283014.52705                        37.500                          36.750          35.000
C19  27239635.232 5  27239633.372 5  27239648.852 5  27239642.814 6                 143145238.68205 141843923.79805 106894243.02405 115259849.99306                        31.500          33.000          33.750          36.000
C20  26420706.200 5  26420705.127 6  26420717.227 6  26420710.844 6                 138841754.65605 137579566.51606 103680601.12906 111794701.14606                        35.750          37.000          37.250          40.250
C24  22115488.974 8  22115486.734 8  22115491.590 8  22115490.757 9                 116217777.76108 115161235.99408  86786057.89108  93577991.80009                        50.500          52.000          52.250          54.000
C26  22871514.222 8  22871511.728 8  22871520.188 8  22871518.648 8                 120190649.81608 119098001.42708  89752796.77508  96776929.69508                        48.500          50.500          48.500          51.000
C29  25499076.962 6  25499075.773 6  25499086.339 6  25499083.082 6                 133998595.48806 132780424.41806 100063952.09106 107895022.82806                        37.750          40.500          39.000          40.500
C34  26783587.421 5  26783583.678 5  26783605.048 5  26783600.221 5                 140748692.47715 139469158.46505 105104620.46905 113330172.60005                        31.750          30.250          30.500          34.000
C35  21584734.274 8  21584732.441 8  21584739.542 8  21584737.702 8                 113428690.45808 112397514.46508  84703358.88608  91332277.49508                        50.000          52.500          50.250          53.750
E04  28583523.348 3  28583537.666 4                                                                                                                                        23.250          24.500
E13  23876464.265 8  23876472.073 8  23876466.913 8  23876468.578 8  23876470.082 9 125471877.39508  93696691.17808 101844163.18308  96140921.38308  94918814.85509        48.750          51.250          53.500          52.250          54.750
E15  24352255.962 7  24352264.006 8  24352259.437 8  24352260.521 8  24352262.051 8 127972131.27807  95563737.70708 103873571.46108  98056684.12908  96810216.99308        47.500          50.000          52.250          50.750          53.500
E18  22331115.797 4  22331129.204 4  22331123.914 4  22331124.586 4  22331127.069 5 117350729.62104  87632066.50304  95252232.53104  89918101.68004  88775094.16605        25.750          26.500          28.750          28.000          30.250
E21  23679495.515 8  23679501.820 8  23679499.335 9  23679498.594 8  23679499.977 9 124436680.59408  92923569.30408 101003846.70609  95347647.51508  94135614.98409        49.250          52.250          54.500          53.250          55.750
E26  27440115.386 6  27440131.766 6  27440125.595 6  27440127.484 6  27440129.032 7 144198803.33406 107681004.70706 117044546.74606 110490057.61906 109085540.73807        36.750          40.250          39.500          41.000          43.500
E27  24445897.053 7  24445904.740 8  24445902.027 8  24445901.550 8  24445902.808 8 128464072.15907  95931001.67108 104272811.23708  98433540.17208  97182275.99608        47.500          49.500          51.500          50.750          53.250
E30                  28795896.998 4  28795890.229 5  28795893.495 4  28795895.325 5                                 122827216.90505 115948879.18304 114474956.84805                        26.250          31.750          29.000          30.750
E34                  28361934.009 4                  28361929.562 3  28361931.977 4                 111298366.84804                 114201785.50603 112750083.74204                        25.500                          23.750          27.500
G06  21257707.762 8                  21257707.655 6  21257713.382 7  21257712.466 6  21257714.093 8 111710192.02708                  87047017.10607  87047015.10906  83420083.80708        48.250                          41.500          46.750          41.500          51.250
G11  20760949.616 8  20760949.696 8  20760949.406 7  20760951.695 8  20760951.476 7  20760956.327 9 109099752.78008 109099741.78108  85012919.16008  85012917.15607  81470751.33509        49.250          48.750          44.750          50.000          44.750          54.500
G12  20213101.539 8                  20213101.191 8  20213102.616 8  20213102.030 8                 106220667.37808                  82769406.63408  82769400.63308                        51.000                          48.250          48.750          48.250
G19  23092236.769 6                  23092235.526 4                  23092239.755 4                 121350589.82106                                  94558949.31904                        39.500                          25.250                          25.250
G20  23700226.821 6                  23700225.704 3                  23700233.256 3                 124545619.68006                                  97048583.22403                        38.500                          21.000                          21.000
G24  23871976.143 6                  23871975.942 4  23871985.551 6  23871985.185 4  23871987.755 7 125448019.44806                  97751719.89206  97751709.86704  93678735.31607        40.000                          26.750          40.250          26.750          44.500
G25  21280847.565 7                  21280846.805 6  21280853.212 7  21280852.179 6  21280854.007 8 111831706.54107                  87141646.07007  87141651.05206  83510773.15408        47.500                          39.250          45.250          39.250          50.500
G28  24672030.628 4                                  24672037.531 5                  24672043.446 5                                 101027866.30205                  96818408.07405        29.000                                          32.250                          35.000
G29  24607469.386 6                  24607469.015 4  24607477.055 5  24607477.028 4                 129313149.89306                 100763539.47305 100763543.48404                        41.500                          24.000          33.500          24.000
R03  23682541.673 6  23682541.203 6  23682551.532 5  23682551.724 5                 126774538.81106 126774518.81706  98602458.22505  98602453.20905                        40.500          40.000          34.750          35.000
R09  21190852.900 8  21190853.597 8  21190861.717 7  21190861.820 7  21190848.446 7 113157984.65208 113157992.65408  88011791.13907  88011782.14807  84965213.52407        49.750          49.750          47.500          47.000          45.250
R10  19287336.757 8  19287336.243 8                                                 102812447.42508 102812444.42408                                                        49.250          49.000
R11  21255277.573 8  21255277.519 8  21255284.992 8  21255284.782 8  21255272.575 7 113581825.92708 113581824.93608  88341479.45408  88341464.46108  85223617.74307        51.000          51.000          48.250          48.250          46.500
R19  21903561.080 6  21903562.118 6  21903572.639 7  21903571.905 7                 117169398.37306 117169411.37806  91131888.39107  91131856.41007                        37.250          36.750          43.750          43.750
R20  19211217.765 7  19211217.828 6  19211226.653 7  19211226.166 7                 102731192.09907 102731172.10306  79902102.28207  79902137.28407                        42.500          41.750          45.250          45.500
R21  22344037.022 7  22344037.514 7  22344049.987 7  22344049.750 7  22344035.747 7 119567538.36807 119567520.37407  92997078.48307  92997074.50107  89589041.90507        47.500          47.000          43.750          43.750          42.000
> 2024 02 29 23 01 00.0000000  0 36
C06                  40636416.280 5                  40636421.063 6  40636421.943 6                 211604483.85905                 171946013.18806 163626056.83406                        35.500                          36.750          38.000
C12                  24201530.923 7                  24201536.358 7  24201537.100 7                 126023823.00007                 102404763.63407  97449712.20807                        43.500                          47.250          47.750
C16                  40546563.472 6                  40546571.358 6  40546572.775 5                 211136618.96406                 171565839.17306 163264285.00405                        37.750                          36.500          35.000
C19  27224199.468 5  27224198.220 5  27224215.530 5  27224208.297 6                 143064130.84805 141763553.38405 106833675.76405 115194542.57306                        30.250          32.250          34.250          36.000
C20  26413310.426 5  26413310.198 6  26413323.542 6  26413316.412 6                 138802897.31105 137541062.49706 103651584.41806 111763413.46006                        33.750          37.500          38.500          39.750
C24  22111328.219 8  22111325.970 8  22111330.330 8  22111329.912 9                 116195911.65608 115139568.67108  86769729.33608  93560385.35009                        50.500          52.250          52.250          54.000
C26  22884941.972 8  22884939.531 8  22884948.027 8  22884946.487 8                 120261213.32008 119167923.44508  89805490.23308  96833747.01508                        48.000          50.500          48.500          50.750
C29  25516363.346 6  25516361.625 6  25516372.276 6  25516368.858 6                 134089432.78706 132870435.91706 100131785.03306 107968164.49806                        37.000          40.250          39.500          40.500
C34  26765661.262 5  26765661.034 5  26765681.518 5  26765674.389 5                 140654499.13605 139375821.46005 105034281.59505 113254328.85005                        30.000          32.250          32.750          32.750
C35  21589711.239 8  21589709.679 8  21589716.632 8  21589714.730 8                 113454845.21308 112423431.44608  84722890.04308  91353337.17708                        49.250          52.250          50.500          53.500
E04  28592304.125 4  28592314.701 3                                                                                                                                        25.500          21.000
E13  23867313.228 8  23867320.830 8  23867315.853 8  23867317.509 8  23867318.973 9 125423788.27808  93660780.54508 101805129.85608  96104073.94308  94882435.81809        49.000          51.500          53.500          52.500          55.000
E15  24360179.243 7  24360187.337 8  24360182.803 8  24360183.721 8  24360185.399 8 128013768.54207  95594830.44808 103907367.92308  98088587.98908  96841715.29308        47.500          50.250          52.250          51.000          53.750
E18  22359612.535 3  22359626.290 4  22359618.971 4  22359622.773 4  22359624.129 5 117500480.70803  87743893.54704  95373783.69804  90032845.96204  88888379.82905        23.750          27.750          27.500          29.250          31.500
E21  23674602.102 8  23674608.278 8  23674605.810 9  23674605.096 8  23674606.474 9 124410965.08308  92904366.17608 100982973.73309  95327943.43808  94116161.38109        49.500          52.250          54.500          53.750          56.000
E26  27422031.903 6  27422048.018 6  27422042.934 6  27422043.687 6  27422045.674 7 144103774.69806 107610042.05306 116967413.29906 110417243.74006 109013652.47307        36.750          40.500          40.750          41.000          43.750
E27  24456274.696 7  24456282.370 8  24456279.683 8  24456279.170 8  24456280.477 8 128518607.04707  95971725.73908 104317076.54308  98475326.61108  97223531.24908        47.500          49.750          51.500          51.000          53.250
E30                  28812154.427 4  28812148.234 5  28812150.843 4  28812152.749 5                                 122896560.71405 116014339.77804 114539585.31405                        25.750          31.250          28.000          30.000
E34                  28379018.343 4                                  28379014.452 4                 111365402.57804                                 112817993.85504                        24.750                                          27.000
G06  21268383.170 8                  21268383.054 6  21268388.536 7  21268387.905 6  21268389.470 8 111766291.13408                  87090730.67807  87090728.67606  83461975.97108        48.250                          41.750          47.000          41.750          51.250
G11  20756432.343 8  20756432.310 8  20756432.133 7  20756433.930 8  20756433.711 7  20756438.575 9 109076012.08008 109076001.08008  84994419.94108  84994417.93607  81453022.91809        49.750          49.250          44.750          50.250          44.750          54.500
G12  20210064.211 8                  20210063.858 8  20210065.204 8  20210064.689 8                 106204705.72308                  82756968.99108  82756962.98708                        51.250                          48.500          49.250          48.500
G19  23110019.919 6                  23110018.645 4                  23110021.757 4                 121444034.84206                                  94631763.51704                        40.750                          26.000                          26.000
G20  23681889.770 6                  23681888.679 3                  23681895.860 3                 124449257.17306                                  96973495.73803                        39.000                          21.500                          21.500
G24  23892203.505 6                  23892203.304 4  23892213.494 6  23892212.672 4  23892215.246 7 125554314.62706                  97834547.10406  97834537.10904  93758111.38307        40.250                          27.500          40.750          27.500          44.500
G25  21266819.432 7                  21266818.677 6  21266824.721 7  21266823.979 6  21266826.366 8 111757990.34307                  87084204.98507  87084209.96706  83455725.47308        47.500                          39.250          44.500          39.250          50.500
G28                                                  24656607.084 5                  24656613.844 6                                 100964679.61105                  96757854.14206                                                        32.500                          36.750
G29  24589268.626 6                  24589268.233 3  24589276.026 5  24589276.222 3                 129217504.95106                 100689011.08305 100689015.10603                        41.750                          22.750          31.750          22.750
R02  24144515.846 4                                                                                                                                                        24.500
R03  23675701.624 6  23675702.536 5  23675712.578 5  23675713.075 6                 126737931.23706 126737911.26905  98573985.70505  98573980.72106                        37.000          35.250          35.750          36.000
R09  21211625.433 8  21211625.804 8  21211633.973 7  21211634.107 7  21211621.096 7 113268906.57608 113268914.58908  88098063.62107  88098054.62807  85048499.66307        50.000          49.500          47.500          47.250          45.750
R10  19291273.319 8  19291273.015 8                                                 102833433.34708 102833430.35308                                                        49.000          48.750
R11  21236314.114 8  21236314.284 8  21236321.158 8  21236321.095 8  21236308.231 7 113480490.65408 113480489.66308  88262663.26808  88262648.26908  85147583.20707        51.250          51.000          48.250          48.500          46.000
R19  21924228.289 6  21924228.526 6  21924238.184 7  21924237.571 7                 117279948.78106 117279961.78706  91217871.95507  91217839.95207                        37.500          36.500          42.750          42.750
R20  19209341.709 7  19209341.821 6  19209350.991 7  19209350.320 7                 102721161.58807 102721141.59806  79894300.79807  79894335.80007                        42.000          41.500          45.000          45.250
R21  22323312.813 7  22323313.350 7  22323325.720 7  22323325.510 7  22323312.096 7 119456642.51407 119456624.52607  92910826.43707  92910822.44907  89505950.71607        47.500          47.250          43.000          43.250          42.500
> 2024 02 29 23 01 30.0000000  0 36
C06                  40630976.106 5                  40630981.054 6  40630981.925 6                 211576155.17005                 171922993.85006 163604151.33606                        35.250                          37.000          39.000
C12                  24186085.967 7                  24186092.060 7  24186092.851 8                 125943400.05407                 102339413.57207  97387524.30708                        43.000                          47.250          48.250
C16                  40541937.831 6                  40541946.620 6  40541948.408 6                 211112536.35906                 171546270.11906 163245662.84706                        38.250                          36.500          36.500
C19  27208786.202 5  27208785.277 5  27208801.558 5  27208793.579 5                 142983133.95205 141683292.81605 106773191.25405 115129324.44105                        30.750          33.500          34.000          35.500
C20  26405997.434 5  26405996.902 6  26406009.458 6  26406003.576 6                 138764468.66905 137502983.20506 103622887.78806 111732470.98206                        33.250          36.750          37.500          39.500
C24  22107259.974 8  22107257.341 8  22107261.978 8  22107261.623 8                 116174532.21208 115118383.58608  86753764.18908  93543170.74908                        50.500          52.250          52.250          53.750
C26  22898440.050 8  22898437.797 8  22898446.203 8  22898444.789 8                 120332147.07908 119238212.34808  89858460.17608  96890862.45708                        48.000          50.500          48.250          50.500
C29  25533658.439 6  25533655.189 6  25533668.000 6  25533664.054 6                 134180318.30806 132960495.18506 100199653.94706 108041344.93706                        37.250          39.250          40.250          41.000
C34  26747749.446 5  26747748.074 5  26747768.308 5  26747762.604 5                 140560370.15805 139282548.18905 104963990.91005 113178537.07305                        31.000          34.250          32.250          32.250
C35  21594753.885 8  21594752.459 8  21594759.385 8  21594757.510 8                 113481345.06308 112449690.38508  84742678.89908  91374674.72008                        49.250          52.500          50.250          53.250
E04  28601145.446 3  28601158.432 3                                                                                                                                        23.250          22.750
E13  23858232.876 8  23858240.375 8  23858235.309 8  23858237.077 8  23858238.495 9 125376070.46808  93625147.18608 101766397.92208  96067511.01108  94846337.67209        48.750          51.250          53.000          52.500          55.000
E15  24368169.109 7  24368177.283 8  24368172.696 8  24368173.596 8  24368175.301 8 128055755.51407  95626184.34508 103941448.25008  98120759.81808  96873478.15708        47.500          50.000          51.750          50.750          53.500
E18  22388206.028 3  22388218.379 4  22388211.207 4  22388214.625 4  22388216.326 5                  87856097.69904  95495744.84004  90147977.19204  89002047.51805        23.250          27.500          25.000          26.750          30.000
E21  23669763.419 8  23669769.617 8  23669767.127 9  23669766.355 8  23669767.832 9 124385537.87308  92885378.33008 100962334.77209  95308460.25708  94096925.86809        49.250          52.250          54.250          53.500          55.750
E26  27403966.353 6  27403981.288 6  27403975.779 6  27403976.729 6  27403978.604 7 144008834.00006 107539145.08706 116890351.26806 110344497.24006 108941830.73807        38.750          40.250          41.000          39.750          43.000
E27  24466702.477 7  24466709.722 8  24466707.079 8  24466706.535 8  24466707.905 8 128573403.39507  96012645.05708 104361554.08108  98517313.39108  97264984.29808        47.750          49.500          51.250          50.500          53.000
E30                  28828422.370 4  28828415.033 4  28828419.166 4  28828420.259 5                                 122965948.86004 116079842.13904 114604255.01605                        27.500          28.500          28.500          30.750
E34                  28396111.547 4                                  28396107.946 4                 111432486.59204                                 112885952.77904                        24.500                                          25.000
G06  21279151.358 8                  21279151.238 6  21279156.822 7  21279156.379 6  21279158.118 8 111822879.61808                  87134825.57407  87134823.57206  83504233.57808        48.000                          41.750          46.500          41.750          51.250
G11  20752025.145 8  20752025.206 8  20752024.935 7  20752026.902 8  20752026.589 7  20752031.574 9 109052852.86808 109052841.86708  84976373.81908  84976371.81807  81435728.72909        49.750          49.250          44.750          50.000          44.750          54.500
G12  20207123.616 8                  20207123.259 8  20207124.814 8  20207124.327 8                 106189253.54508                  82744928.34408  82744922.34308                        51.000                          48.500          49.000          48.500
G19  23127825.636 6                  23127824.362 4                  23127828.694 4                 121537610.15306                                  94704679.23704                        40.000                          25.500                          25.500
G20  23663584.344 6                  23663583.236 3                  23663590.354 3                 124353060.74806                                  96898537.69603                        39.500                          21.750                          21.750
G24  23912455.253 6                  23912455.048 4  23912464.044 6  23912464.030 4  23912467.415 7 125660739.45306                  97917475.38006  97917465.37804  93837584.27207        39.500                          25.500          38.500          25.500          44.500
G25  21252861.474 7                  21252860.714 6  21252866.853 7  21252866.106 6  21252868.153 8 111684640.98307                  87027049.75007  87027054.73106  83400951.72808        47.250                          39.250          44.750          39.250          50.500
G28  24641243.866 5  24641243.775 5                  24641249.513 5                  24641256.461 6                 129490605.43715 100901796.56705                  96697591.25306        32.250          31.750                          32.000                          38.000
G29  24571087.175 6                  24571086.813 3  24571093.860 5  24571093.176 3                 129121958.54706                 100614559.48705 100614563.48203                        40.750                          20.500          31.750          20.500
R02  24154277.955 4                  24154287.709 4                                                                                                                        27.750                          24.000
R03  23668995.296 5  23668995.614 5  23669005.643 6  23669005.388 6                 126702027.42805 126702007.43705  98546060.50206  98546055.48306                        35.000          34.250          36.500          36.750
R09  21232476.240 8  21232476.790 8  21232485.196 7  21232484.865 7  21232472.260 7 113380247.77808 113380255.79308  88184662.19907  88184653.20507  85132100.60407        49.750          49.500          47.750          47.000          45.500
R10  19295350.797 8  19295350.475 8                                                 102855168.64008 102855165.63908                                                        49.000          48.500
R11  21217426.130 8  21217426.385 8  21217433.111 7  21217433.071 8  21217421.289 7 113379561.35708 113379560.36308  88184162.81207  88184147.81808  85071853.28407        50.750          50.750          47.500          48.000          46.250
R19  21944934.425 6  21944934.515 6  21944942.836 6  21944942.393 7                 117390707.13006 117390720.14606  91304017.24306  91303985.25207                        38.250          37.250          41.750          42.500
R20  19207590.472 6  19207590.159 6  19207599.507 7  19207598.913 7                 102711795.97306 102711775.97406  79887016.45707  79887051.44907                        41.750          41.500          45.000          45.500
R21  22302646.729 7  22302647.001 7  22302658.182 7  22302658.146 7  22302645.220 7 119346051.81707 119346033.82907  92824811.75107  92824807.74807  89423088.17707        47.500          47.250          42.500          43.000          42.500
> 2024 02 29 23 02 00.0000000  0 36
C06                  40625558.794 5                  40625564.364 6  40625565.678 6                 211547948.29705                 171900073.52006 163582340.05206                        35.250                          38.000          39.500
C12                  24170681.147 7                  24170686.834 7  24170687.978 8                 125863183.34707                 102274231.13707  97325495.91508                        43.250                          47.000          48.750
C16                  40537338.982 6                  40537346.609 5  40537349.005 6                 211088583.07106                 171526806.17605 163227140.70006                        39.250                          35.750          37.500
C19  27193393.313 5  27193390.831 5  27193408.226 5  27193400.931 6                 142902240.43605 141603134.68105 106712783.97605 115064189.53706                        32.250          33.750          35.250          36.500
C20  26398765.305 5  26398765.126 6  26398777.504 6  26398771.045 6                 138726460.42105 137465320.44606 103594505.03706 111701866.98506                        35.250          37.500          38.250          40.250
C24  22103282.100 8  22103280.044 8  22103284.461 8  22103283.914 8                 116153630.37708 115097671.77308  86738155.70808  93526340.72608                        50.500          52.500          52.250          53.500
C26  22912006.659 8  22912004.522 8  22912012.955 8  22912011.129 8                 120403439.56508 119308856.71908  89911698.00508  96948266.74508                        48.500          50.500          48.250          50.250
C29  25550959.608 6  25550958.303 6  25550969.634 6  25550966.033 6                 134271240.84706 133050591.16506 100267550.53306 108114555.20306                        37.250          40.750          39.250          40.250
C34  26729847.458 5  26729845.575 5  26729866.266 5  26729861.063 5                 140466296.37705 139189329.59705 104893741.53505 113102789.72805                        33.750          35.000          32.500          34.500
C35  21599860.197 8  21599858.445 8  21599865.711 8  21599863.867 8                 113508178.84108 112476280.22608  84762717.11408  91396281.14108                        49.750          52.250          50.250          53.250
E04  28610046.082 3  28610060.941 4                                                                                                                                        19.500          26.000
E13  23849221.430 8  23849228.733 8  23849223.890 8  23849225.519 8  23849226.911 9 125328714.58808  93589784.09108 101727959.75108  96031225.39508  94810513.31709        49.000          51.000          53.250          53.000          55.000
E15  24376223.418 7  24376231.530 8  24376226.795 8  24376228.080 8  24376229.579 8 128098080.85407  95657790.91308 103975803.21808  98153190.90808  96905496.98608        47.250          49.750          51.750          51.500          53.750
E18  22416891.157 3  22416905.757 4  22416899.444 4  22416901.113 4  22416903.708 4                  87968668.17904  95618103.97204  90263484.28904  89116086.30004        21.750          26.750          27.000          27.250          29.750
E21  23664978.051 8  23664984.146 8  23664981.704 9  23664980.879 8  23664982.324 9 124360389.95008  92866599.05408 100941922.50709  95289191.08308  94077901.64309        49.250          52.000          54.500          53.750          56.000
E26  27385914.842 6  27385928.695 6  27385924.345 6  27385924.624 6  27385926.601 7 143913972.55706 107468307.28906 116813353.55606 110271811.44506 108870068.94407        39.750          38.750          41.000          40.250          42.500
E27  24477177.621 7  24477185.012 8  24477182.312 8  24477181.737 8  24477183.133 8 128628450.89507  96053751.92408 104406235.47108  98559492.61908  97306627.34608        47.750          49.000          51.250          51.000          53.000
E30                  28844698.514 4  28844689.973 4  28844693.633 4  28844696.183 4                                 123035372.23104 116145377.89104 114668957.69004                        27.250          25.000          25.750          29.500
E34                  28413216.635 3                                  28413212.972 3                                                                 112953952.15503                        23.250                                          23.250
G06  21290010.900 8                  21290010.789 7  21290015.993 7  21290015.550 7  21290017.396 8 111879945.24708                  87179292.28107  87179290.27407  83546847.49508        48.250                          42.000          46.500          42.000          51.500
G11  20747726.276 8  20747726.408 8  20747726.071 7  20747728.471 8  20747728.256 7  20747733.281 9 109030265.49508 109030254.49408  84958773.29608  84958771.29407  81418861.56609        49.250          49.250          44.750          50.000          44.750          54.500
G12  20204278.614 8                  20204278.261 8  20204279.625 8  20204279.200 8                 106174302.12508                  82733277.90908  82733271.90308                        51.250                          48.750          49.000          48.750
G19  23145655.257 6                  23145653.983 4                  23145658.167 4                 121631304.26606                                  94777687.54404                        39.750                          25.500                          25.500
G20  23645308.944 6                  23645307.836 3                  23645314.578 3                 124257023.04006                                  96823703.31603                        38.750                          21.500                          21.500
G24  23932729.237 6                  23932729.036 4  23932739.374 6  23932738.444 4  23932741.555 7 125767281.06606                  98000494.65906  98000484.66204  93917144.37807        39.000                          25.750          39.250          25.750          43.750
G25  21238972.235 8                  21238971.475 6  21238977.144 7  21238976.469 6  21238978.311 8 111611650.60008                  86970174.22407  86970179.21806  83346446.04808        48.000                          39.750          45.000          39.750          50.500
G28  24625959.373 5  24625960.146 5                  24625966.192 5                  24625972.264 6 129410290.61615 129410287.60405 100839211.40805                  96637613.84306        32.250          31.250                          32.500                          38.250
G29  24552921.187 6                  24552920.807 3  24552928.010 5  24552927.778 3                 129026501.71506                 100540177.76705 100540181.72603                        39.000                          20.000          32.000          20.000
R02  24164160.304 4                  24164166.575 3                                                                                                                        24.500                          22.000
R03  23662417.903 6  23662417.170 6  23662428.925 6  23662429.640 6                 126666819.11406 126666799.12906  98518676.33106  98518671.34706                        37.250          36.500          38.500          38.250
R09  21253402.942 8  21253403.269 8  21253411.304 7  21253411.295 7  21253399.267 7 113491995.15008 113492003.15408  88271576.67907  88271567.67907  85216006.54307        49.500          49.250          47.000          46.250          45.500
R10  19299566.939 8  19299566.822 8                                                 102877643.62408 102877640.62708                                                        49.500          48.500
R11  21198613.004 8  21198613.250 8  21198620.629 7  21198620.325 7  21198608.047 7 113279031.84908 113279030.86108  88105973.32307  88105958.31907  84996423.34807        50.750          51.000          47.750          47.250          46.250
R19  21965676.226 6  21965675.752 6  21965684.981 7  21965684.958 7                 117501660.03206 117501673.05506  91390313.84707  91390281.85207                        37.750          36.750          43.500          42.750
R20  19205961.622 7  19205961.353 6  19205970.532 7  19205969.647 7                 102703083.75807 102703063.77806  79880240.31607  79880275.31307                        42.000          41.750          45.000          45.250
R21  22282035.541 8  22282036.131 8  22282047.124 7  22282046.811 7  22282033.514 7 119235758.08608 119235740.09308  92739028.00507  92739024.00707  89340448.10307        48.250          48.000          42.500          42.250          42.000
> 2024 02 29 23 02 30.0000000  0 35
C06                  40620167.038 5                  40620172.612 6  40620173.944 6                 211519870.59905                 171877258.12806 163560628.64806                        35.250                          38.250          40.000
C12                  24155318.308 7                  24155323.172 7  24155323.502 8                 125783180.49907                 102209222.48207  97263632.91708                        44.000                          47.750          48.250
C16                  40532764.786 6                  40532772.445 5  40532775.784 6                 211064766.52306                 171507453.30305 163208724.27706                        39.750                          35.500          38.500
C19  27178019.907 5  27178018.825 5  27178035.853 5  27178028.147 5                 142821459.62005 141523088.27605 106652460.85505 114999145.43405                        31.750          34.000          35.500          35.500
C20  26391614.449 5  26391613.125 6  26391625.413 6  26391619.679 6                 138688881.18305 137428082.83306 103566442.63106 111671608.40906                        34.500          37.250          37.750          39.500
C24  22099397.313 8  22099394.907 8  22099399.473 8  22099398.720 8                 116133214.09808 115077441.09708  86722909.80808  93509901.66008                        51.000          52.500          52.500          53.500
C26  22925642.466 8  22925640.356 8  22925649.080 8  22925647.182 8                 120475096.20708 119379861.92308  89965207.75808  97005964.24108                        48.250          50.500          48.500          50.500
C29  25568269.529 6  25568269.297 6  25568279.648 6  25568276.239 6                 134362206.25706 133140729.58406 100335479.15506 108187800.00706                        37.500          40.500          39.000          40.250
C34  26711957.477 5  26711956.283 6  26711975.855 5  26711970.707 5                 140372285.34105 139096173.25406 104823539.07605 113027092.97505                        34.250          36.750          31.750          35.750
C35  21605031.214 8  21605029.345 8  21605036.750 8  21605034.817 8                 113535352.48908 112503206.84508  84783009.12608  91418161.22108                        49.750          52.250          50.500          53.250
E04                  28619023.604 3                                                                                                                                                        23.750
E13  23840279.971 8  23840287.416 8  23840282.690 8  23840284.275 8  23840285.626 9 125281728.16708  93554696.89408 101689821.46708  95995222.86708  94774968.45509        49.000          51.000          53.500          52.500          54.750
E15  24384342.974 7  24384351.162 8  24384346.440 8  24384347.958 8  24384349.265 8 128140750.12207  95689654.31408 104010437.35608  98185885.53108  96937775.99708        47.250          49.750          52.000          51.000          53.500
E18                  22445687.635 3  22445681.191 4                                                                  95740864.19704                                                        23.750          24.250
E21  23660246.892 8  23660253.193 8  23660251.047 9  23660250.020 8  23660251.483 9 124335529.27408  92848034.27008 100921743.39209  95270142.00008  94059094.70909        49.250          52.000          54.500          53.250          55.750
E26  27367879.220 6  27367893.686 6  27367888.495 6  27367889.288 6  27367891.485 7 143819198.59606 107397534.85606 116736426.88006 110199192.73306 108798373.37007        38.000          38.750          40.250          39.750          42.250
E27  24487701.881 7  24487709.295 8  24487706.487 8  24487705.975 8  24487707.411 8 128683756.22707  96095051.31708 104451126.12908  98601869.39108  97348465.42908        47.500          49.250          51.000          50.500          53.000
E30                  28860985.117 4                  28860979.069 4  28860981.297 4                                                 116210952.01104 114733698.23104                        26.500                          24.000          28.250
E34                  28430331.776 3                                                                                                                                                        20.250
G06  21300961.704 8                  21300961.588 6  21300966.752 7  21300966.497 6  21300968.392 8 111937492.77008                  87224134.48207  87224132.47506  83589821.26108        48.500                          41.750          46.750          41.750          52.000
G11  20743538.419 8  20743538.543 8  20743538.218 7  20743540.176 8  20743540.060 7  20743545.175 9 109008257.22008 109008246.21608  84941624.02508  84941622.01807  81402426.85109        49.500          49.250          44.500          50.000          44.500          55.000
G12  20201530.325 8                  20201529.972 8  20201531.103 8  20201530.674 8                 106159859.03508                  82722023.56908  82722017.56208                        51.500                          48.500          49.250          48.500
G19  23163508.140 6                  23163506.862 4                  23163511.998 4                 121725122.94306                                  94850792.88904                        39.750                          25.750                          25.750
G20  23627065.803 6                  23627064.686 3                  23627070.968 3                 124161154.43306                                  96749000.76103                        39.500                          21.000                          21.000
G24  23953026.734 6                  23953026.515 4  23953036.973 6  23953036.356 4  23953038.408 7 125873943.51506                  98083608.06806  98083598.07204  93996794.70807        39.500                          26.000          40.500          26.000          44.000
